{
  "_meta": {
    "models": {
      "campaigns": "A lead discovery effort around a specific location. Campaigns scrape multiple sources (ChoralNet, CASA, Facebook, Instagram, Google API) to discover potential booking opportunities.",
      "leads": "A discovered opportunity (chorus, a cappella group, or music organization) that could convert into a Booking. Generated by Campaigns and can be nurtured through outreach.",
      "venues": "The actual group, chorus, or music organization where bookings take place. Separate from individual contact persons to maintain organizational information.",
      "contacts": "A person at a venue or organization you communicate with. Contacts are associated with Venues and receive outreach messages."
    },
    "relationships": [
      "Each Campaign generates multiple Leads (discovered opportunities)",
      "Each Lead belongs to a Campaign and references a Venue",
      "Each Venue can appear in multiple Leads across different Campaigns",
      "Each Venue has one or more Contacts for outreach"
    ]
  },
  "campaigns": [
    {
      "id": "campaign-001",
      "name": "Seattle Weekend Expansion",
      "location": "Seattle, WA",
      "radius": 50,
      "status": "completed",
      "createdDate": "2024-02-01",
      "completedDate": "2024-02-02",
      "sources": ["choralnet", "casa", "google"],
      "totalLeads": 24,
      "highScoreLeads": 8,
      "mediumScoreLeads": 11,
      "lowScoreLeads": 5
    },
    {
      "id": "campaign-002",
      "name": "Portland Lead Generation",
      "location": "Portland, OR",
      "radius": 30,
      "status": "in-progress",
      "createdDate": "2024-03-10",
      "completedDate": null,
      "sources": ["choralnet", "facebook", "instagram"],
      "totalLeads": 12,
      "highScoreLeads": 4,
      "mediumScoreLeads": 6,
      "lowScoreLeads": 2
    },
    {
      "id": "campaign-003",
      "name": "Bay Area Deep Dive",
      "location": "San Francisco, CA",
      "radius": 75,
      "status": "completed",
      "createdDate": "2024-01-15",
      "completedDate": "2024-01-16",
      "sources": ["choralnet", "casa", "facebook", "google"],
      "totalLeads": 38,
      "highScoreLeads": 12,
      "mediumScoreLeads": 18,
      "lowScoreLeads": 8
    },
    {
      "id": "campaign-004",
      "name": "Austin Opportunity Search",
      "location": "Austin, TX",
      "radius": 40,
      "status": "pending",
      "createdDate": "2024-03-25",
      "completedDate": null,
      "sources": ["choralnet", "casa"],
      "totalLeads": 0,
      "highScoreLeads": 0,
      "mediumScoreLeads": 0,
      "lowScoreLeads": 0
    }
  ],
  "leads": [
    {
      "id": "lead-001",
      "campaignId": "campaign-001",
      "venueId": "venue-011",
      "venueName": "Emerald City Chorus",
      "score": 92,
      "source": "choralnet",
      "status": "qualified",
      "contactStatus": "not-contacted",
      "city": "Seattle",
      "state": "WA",
      "venueType": "chorus",
      "memberCount": 45,
      "website": "https://emeraldcitychorus.org",
      "notes": "Large community chorus, active social media presence, previous workshop history",
      "discoveredDate": "2024-02-01"
    },
    {
      "id": "lead-002",
      "campaignId": "campaign-001",
      "venueId": "venue-012",
      "venueName": "Tacoma Vocal Arts",
      "score": 88,
      "source": "casa",
      "status": "qualified",
      "contactStatus": "contacted",
      "city": "Tacoma",
      "state": "WA",
      "venueType": "a-cappella-group",
      "memberCount": 16,
      "website": "https://tacomavocalarts.com",
      "notes": "Contemporary a cappella group, collegiate-style, responded positively to initial email",
      "discoveredDate": "2024-02-01"
    },
    {
      "id": "lead-003",
      "campaignId": "campaign-001",
      "venueId": "venue-013",
      "venueName": "Bellevue Community Singers",
      "score": 85,
      "source": "google",
      "status": "qualified",
      "contactStatus": "not-contacted",
      "city": "Bellevue",
      "state": "WA",
      "venueType": "chorus",
      "memberCount": 35,
      "website": "https://bellevuesingers.org",
      "notes": "Well-established group, annual concert series, good budget potential",
      "discoveredDate": "2024-02-02"
    },
    {
      "id": "lead-004",
      "campaignId": "campaign-001",
      "venueId": "venue-014",
      "venueName": "Pacific Northwest Harmony",
      "score": 76,
      "source": "choralnet",
      "status": "review",
      "contactStatus": "not-contacted",
      "city": "Seattle",
      "state": "WA",
      "venueType": "barbershop",
      "memberCount": 28,
      "website": "https://pnwharmony.org",
      "notes": "Barbershop chorus, moderate size, competitive group",
      "discoveredDate": "2024-02-01"
    },
    {
      "id": "lead-005",
      "campaignId": "campaign-001",
      "venueId": "venue-015",
      "venueName": "Olympia Chamber Choir",
      "score": 72,
      "source": "choralnet",
      "status": "review",
      "contactStatus": "not-contacted",
      "city": "Olympia",
      "state": "WA",
      "venueType": "chorus",
      "memberCount": 22,
      "website": "https://olympiachamberchoir.org",
      "notes": "Small chamber ensemble, classical focus",
      "discoveredDate": "2024-02-02"
    },
    {
      "id": "lead-006",
      "campaignId": "campaign-002",
      "venueId": "venue-016",
      "venueName": "Rose City Singers",
      "score": 90,
      "source": "facebook",
      "status": "qualified",
      "contactStatus": "contacted",
      "city": "Portland",
      "state": "OR",
      "venueType": "chorus",
      "memberCount": 50,
      "website": "https://rosecitysingers.org",
      "notes": "Very active on social media, high engagement, strong interest in workshops",
      "discoveredDate": "2024-03-10"
    },
    {
      "id": "lead-007",
      "campaignId": "campaign-002",
      "venueId": "venue-017",
      "venueName": "Portland A Cappella Project",
      "score": 84,
      "source": "instagram",
      "status": "qualified",
      "contactStatus": "not-contacted",
      "city": "Portland",
      "state": "OR",
      "venueType": "a-cappella-group",
      "memberCount": 14,
      "website": "https://pdxacappella.com",
      "notes": "Contemporary group, Instagram presence strong, young demographic",
      "discoveredDate": "2024-03-10"
    },
    {
      "id": "lead-008",
      "campaignId": "campaign-002",
      "venueId": "venue-018",
      "venueName": "Beaverton Community Chorus",
      "score": 78,
      "source": "choralnet",
      "status": "review",
      "contactStatus": "not-contacted",
      "city": "Beaverton",
      "state": "OR",
      "venueType": "chorus",
      "memberCount": 32,
      "website": "https://beavertonchorus.org",
      "notes": "Suburban community chorus, active rehearsal schedule",
      "discoveredDate": "2024-03-11"
    },
    {
      "id": "lead-009",
      "campaignId": "campaign-003",
      "venueId": "venue-019",
      "venueName": "Bay Area Women's Chorus",
      "score": 94,
      "source": "choralnet",
      "status": "qualified",
      "contactStatus": "contacted",
      "city": "San Francisco",
      "state": "CA",
      "venueType": "chorus",
      "memberCount": 80,
      "website": "https://bayareawomenschorus.org",
      "notes": "Large ensemble, excellent reputation, prior relationship with colleague",
      "discoveredDate": "2024-01-15"
    },
    {
      "id": "lead-010",
      "campaignId": "campaign-003",
      "venueId": "venue-020",
      "venueName": "Oakland Harmony Collective",
      "score": 91,
      "source": "facebook",
      "status": "qualified",
      "contactStatus": "interested",
      "city": "Oakland",
      "state": "CA",
      "venueType": "a-cappella-group",
      "memberCount": 18,
      "website": "https://oaklandharmony.org",
      "notes": "Very interested, requested proposal, strong budget",
      "discoveredDate": "2024-01-15"
    },
    {
      "id": "lead-011",
      "campaignId": "campaign-003",
      "venueId": "venue-021",
      "venueName": "Berkeley Choral Society",
      "score": 87,
      "source": "casa",
      "status": "qualified",
      "contactStatus": "not-contacted",
      "city": "Berkeley",
      "state": "CA",
      "venueType": "chorus",
      "memberCount": 65,
      "website": "https://berkeleychoral.org",
      "notes": "University-affiliated, high skill level, annual workshop series",
      "discoveredDate": "2024-01-16"
    },
    {
      "id": "lead-012",
      "campaignId": "campaign-003",
      "venueId": "venue-022",
      "venueName": "San Jose Voices United",
      "score": 82,
      "source": "google",
      "status": "qualified",
      "contactStatus": "contacted",
      "city": "San Jose",
      "state": "CA",
      "venueType": "chorus",
      "memberCount": 42,
      "website": "https://sjvoicesunited.org",
      "notes": "Responded to initial outreach, scheduling discussion in progress",
      "discoveredDate": "2024-01-16"
    },
    {
      "id": "lead-013",
      "campaignId": "campaign-003",
      "venueId": "venue-023",
      "venueName": "Palo Alto Chamber Voices",
      "score": 74,
      "source": "choralnet",
      "status": "review",
      "contactStatus": "not-contacted",
      "city": "Palo Alto",
      "state": "CA",
      "venueType": "chorus",
      "memberCount": 24,
      "website": "https://paloaltochambervoices.org",
      "notes": "Small chamber group, classical repertoire focus",
      "discoveredDate": "2024-01-16"
    },
    {
      "id": "lead-014",
      "campaignId": "campaign-001",
      "venueId": "venue-024",
      "venueName": "Kirkland Vocal Ensemble",
      "score": 68,
      "source": "google",
      "status": "disqualified",
      "contactStatus": "not-contacted",
      "city": "Kirkland",
      "state": "WA",
      "venueType": "chorus",
      "memberCount": 12,
      "website": null,
      "notes": "Very small group, no website, limited budget likely",
      "discoveredDate": "2024-02-02"
    },
    {
      "id": "lead-015",
      "campaignId": "campaign-002",
      "venueId": "venue-025",
      "venueName": "Hillsboro Harmony Singers",
      "score": 65,
      "source": "choralnet",
      "status": "disqualified",
      "contactStatus": "not-contacted",
      "city": "Hillsboro",
      "state": "OR",
      "venueType": "chorus",
      "memberCount": 18,
      "website": "https://hillsboroharmony.org",
      "notes": "Small budget, primarily volunteer-led",
      "discoveredDate": "2024-03-11"
    }
  ],
  "venues": [
    {
      "id": "venue-011",
      "name": "Emerald City Chorus",
      "type": "chorus",
      "city": "Seattle",
      "state": "WA",
      "website": "https://emeraldcitychorus.org",
      "memberCount": 45,
      "genre": "Community Chorus"
    },
    {
      "id": "venue-012",
      "name": "Tacoma Vocal Arts",
      "type": "a-cappella-group",
      "city": "Tacoma",
      "state": "WA",
      "website": "https://tacomavocalarts.com",
      "memberCount": 16,
      "genre": "Contemporary A Cappella"
    },
    {
      "id": "venue-013",
      "name": "Bellevue Community Singers",
      "type": "chorus",
      "city": "Bellevue",
      "state": "WA",
      "website": "https://bellevuesingers.org",
      "memberCount": 35,
      "genre": "Community Chorus"
    },
    {
      "id": "venue-014",
      "name": "Pacific Northwest Harmony",
      "type": "barbershop",
      "city": "Seattle",
      "state": "WA",
      "website": "https://pnwharmony.org",
      "memberCount": 28,
      "genre": "Barbershop Chorus"
    },
    {
      "id": "venue-015",
      "name": "Olympia Chamber Choir",
      "type": "chorus",
      "city": "Olympia",
      "state": "WA",
      "website": "https://olympiachamberchoir.org",
      "memberCount": 22,
      "genre": "Chamber Choir"
    },
    {
      "id": "venue-016",
      "name": "Rose City Singers",
      "type": "chorus",
      "city": "Portland",
      "state": "OR",
      "website": "https://rosecitysingers.org",
      "memberCount": 50,
      "genre": "Community Chorus"
    },
    {
      "id": "venue-017",
      "name": "Portland A Cappella Project",
      "type": "a-cappella-group",
      "city": "Portland",
      "state": "OR",
      "website": "https://pdxacappella.com",
      "memberCount": 14,
      "genre": "Contemporary A Cappella"
    },
    {
      "id": "venue-018",
      "name": "Beaverton Community Chorus",
      "type": "chorus",
      "city": "Beaverton",
      "state": "OR",
      "website": "https://beavertonchorus.org",
      "memberCount": 32,
      "genre": "Community Chorus"
    },
    {
      "id": "venue-019",
      "name": "Bay Area Women's Chorus",
      "type": "chorus",
      "city": "San Francisco",
      "state": "CA",
      "website": "https://bayareawomenschorus.org",
      "memberCount": 80,
      "genre": "SSAA Chorus"
    },
    {
      "id": "venue-020",
      "name": "Oakland Harmony Collective",
      "type": "a-cappella-group",
      "city": "Oakland",
      "state": "CA",
      "website": "https://oaklandharmony.org",
      "memberCount": 18,
      "genre": "Contemporary A Cappella"
    },
    {
      "id": "venue-021",
      "name": "Berkeley Choral Society",
      "type": "chorus",
      "city": "Berkeley",
      "state": "CA",
      "website": "https://berkeleychoral.org",
      "memberCount": 65,
      "genre": "SATB Chorus"
    },
    {
      "id": "venue-022",
      "name": "San Jose Voices United",
      "type": "chorus",
      "city": "San Jose",
      "state": "CA",
      "website": "https://sjvoicesunited.org",
      "memberCount": 42,
      "genre": "Community Chorus"
    },
    {
      "id": "venue-023",
      "name": "Palo Alto Chamber Voices",
      "type": "chorus",
      "city": "Palo Alto",
      "state": "CA",
      "website": "https://paloaltochambervoices.org",
      "memberCount": 24,
      "genre": "Chamber Ensemble"
    },
    {
      "id": "venue-024",
      "name": "Kirkland Vocal Ensemble",
      "type": "chorus",
      "city": "Kirkland",
      "state": "WA",
      "website": null,
      "memberCount": 12,
      "genre": "Small Ensemble"
    },
    {
      "id": "venue-025",
      "name": "Hillsboro Harmony Singers",
      "type": "chorus",
      "city": "Hillsboro",
      "state": "OR",
      "website": "https://hillsboroharmony.org",
      "memberCount": 18,
      "genre": "Community Chorus"
    }
  ],
  "contacts": [
    {
      "id": "contact-001",
      "venueId": "venue-011",
      "name": "Jennifer Martinez",
      "email": "j.martinez@emeraldcitychorus.org",
      "role": "Artistic Director",
      "phone": "(206) 555-0123",
      "notes": "Primary contact, very responsive via email"
    },
    {
      "id": "contact-002",
      "venueId": "venue-012",
      "name": "Alex Thompson",
      "email": "alex@tacomavocalarts.com",
      "role": "Music Director",
      "phone": "(253) 555-0145",
      "notes": "Interested in contemporary a cappella coaching"
    },
    {
      "id": "contact-003",
      "venueId": "venue-013",
      "name": "Robert Chen",
      "email": "rchen@bellevuesingers.org",
      "role": "President",
      "phone": "(425) 555-0167",
      "notes": "Handles booking logistics and budget approval"
    },
    {
      "id": "contact-004",
      "venueId": "venue-016",
      "name": "Sarah Williams",
      "email": "sarah.w@rosecitysingers.org",
      "role": "Executive Director",
      "phone": "(503) 555-0189",
      "notes": "Very engaged, followed up twice about availability"
    },
    {
      "id": "contact-005",
      "venueId": "venue-019",
      "name": "Patricia Rodriguez",
      "email": "prodriguez@bayareawomenschorus.org",
      "role": "Artistic Director",
      "phone": "(415) 555-0201",
      "notes": "Mutual connection through colleague, warm introduction"
    },
    {
      "id": "contact-006",
      "venueId": "venue-020",
      "name": "Marcus Johnson",
      "email": "marcus@oaklandharmony.org",
      "role": "Music Director",
      "phone": "(510) 555-0223",
      "notes": "Requested detailed proposal, strong budget available"
    },
    {
      "id": "contact-007",
      "venueId": "venue-021",
      "name": "Dr. Emily Zhang",
      "email": "e.zhang@berkeleychoral.org",
      "role": "Conductor",
      "phone": "(510) 555-0245",
      "notes": "University affiliation, academic approach to workshops"
    },
    {
      "id": "contact-008",
      "venueId": "venue-022",
      "name": "David Patel",
      "email": "dpatel@sjvoicesunited.org",
      "role": "President",
      "phone": "(408) 555-0267",
      "notes": "Currently scheduling follow-up conversation"
    }
  ]
}
